{"data":{"allToilets":{"nodes":[{"name":"COM1 Level 1 Main Entrance","facilities":{"hose":true,"showerHeads":false,"handicapped":true},"paranoma":{"femaleYaw":"54","maleYaw":"-83","handicappedYaw":"-58","waterCoolerYaw":"24"},"lat":1.294845,"lon":103.773756},{"name":"COM1 Level 1 Side Entrance Female","facilities":{"hose":false,"showerHeads":false,"handicapped":false},"paranoma":{"femaleYaw":"-97","maleYaw":null,"handicappedYaw":null,"waterCoolerYaw":null},"lat":1.295231,"lon":103.773877},{"name":"COM1 Level 1 Side Entrance Male","facilities":{"hose":false,"showerHeads":false,"handicapped":false},"paranoma":{"femaleYaw":null,"maleYaw":"-51","handicappedYaw":null,"waterCoolerYaw":null},"lat":1.295487,"lon":103.773624},{"name":"COM1 Level 2 Main Area","facilities":{"hose":false,"showerHeads":false,"handicapped":true},"paranoma":{"femaleYaw":"14","maleYaw":"-85","handicappedYaw":"-55","waterCoolerYaw":"-126"},"lat":1.2947594,"lon":103.7737922},{"name":"COM1 Level 2 Student Area","facilities":{"hose":false,"showerHeads":false,"handicapped":false},"paranoma":{"femaleYaw":"-122","maleYaw":"-111","handicappedYaw":null,"waterCoolerYaw":"-165"},"lat":1.2951129,"lon":103.7738653},{"name":"COM1 Level 3 Main Entrance","facilities":{"hose":false,"showerHeads":false,"handicapped":true},"paranoma":{"femaleYaw":"-5","maleYaw":"-103","handicappedYaw":"-62","waterCoolerYaw":null},"lat":1.2947832,"lon":103.7738273},{"name":"COM1 Level 3 Rooftop","facilities":{"hose":false,"showerHeads":false,"handicapped":false},"paranoma":{"femaleYaw":"-133","maleYaw":"-164","handicappedYaw":null,"waterCoolerYaw":null},"lat":1.2950084,"lon":103.7739992},{"name":"COM2 Basement 1 Male","facilities":{"hose":false,"showerHeads":false,"handicapped":false},"paranoma":{"femaleYaw":null,"maleYaw":"-85","handicappedYaw":null,"waterCoolerYaw":null},"lat":1.2935011,"lon":103.7742319},{"name":"COM2 Level 1 Female","facilities":{"hose":false,"showerHeads":false,"handicapped":true},"paranoma":{"femaleYaw":"-142","maleYaw":null,"handicappedYaw":null,"waterCoolerYaw":null},"lat":1.2935011,"lon":103.7742319},{"name":"COM2 Level 1 Male","facilities":{"hose":false,"showerHeads":false,"handicapped":false},"paranoma":{"femaleYaw":null,"maleYaw":"-101","handicappedYaw":null,"waterCoolerYaw":"157"},"lat":1.2939991,"lon":103.773985},{"name":"COM2 Level 2 Female","facilities":{"hose":false,"showerHeads":false,"handicapped":false},"paranoma":{"femaleYaw":"-62","maleYaw":null,"handicappedYaw":null,"waterCoolerYaw":null},"lat":1.2939991,"lon":103.773985},{"name":"COM2 Level 2 Male","facilities":{"hose":false,"showerHeads":false,"handicapped":true},"paranoma":{"femaleYaw":null,"maleYaw":"-172","handicappedYaw":null,"waterCoolerYaw":null},"lat":1.2935011,"lon":103.7742319},{"name":"COM2 Level 3 Female","facilities":{"hose":false,"showerHeads":false,"handicapped":false},"paranoma":{"femaleYaw":"147","maleYaw":null,"handicappedYaw":null,"waterCoolerYaw":null},"lat":1.2935011,"lon":103.7742319},{"name":"COM2 Level 3 Male","facilities":{"hose":false,"showerHeads":false,"handicapped":false},"paranoma":{"femaleYaw":null,"maleYaw":"-107","handicappedYaw":null,"waterCoolerYaw":null},"lat":1.294099,"lon":103.7740178},{"name":"COM2 Level 4 Female","facilities":{"hose":false,"showerHeads":false,"handicapped":false},"paranoma":{"femaleYaw":"-92","maleYaw":null,"handicappedYaw":null,"waterCoolerYaw":null},"lat":1.2939991,"lon":103.773985},{"name":"COM2 Level 4 Male","facilities":{"hose":false,"showerHeads":false,"handicapped":false},"paranoma":{"femaleYaw":null,"maleYaw":"-118","handicappedYaw":null,"waterCoolerYaw":null},"lat":1.2935011,"lon":103.7742319},{"name":"I3 Level 1 Auditorium","facilities":{"hose":false,"showerHeads":false,"handicapped":true},"paranoma":{"femaleYaw":"-105","maleYaw":"-128","handicappedYaw":null,"waterCoolerYaw":"166"},"lat":1.2926594,"lon":103.7755466},{"name":"I3 Level 1 Hangar","facilities":{"hose":false,"showerHeads":false,"handicapped":true},"paranoma":{"femaleYaw":"177","maleYaw":"-169","handicappedYaw":null,"waterCoolerYaw":null},"lat":1.292272,"lon":103.775599},{"name":"I3 Level 3 Main Entrance","facilities":{"hose":false,"showerHeads":false,"handicapped":true},"paranoma":{"femaleYaw":"-73","maleYaw":"-80","handicappedYaw":null,"waterCoolerYaw":null},"lat":1.2922825,"lon":103.7757922},{"name":"I3 Level 3 Pantry","facilities":{"hose":false,"showerHeads":false,"handicapped":true},"paranoma":{"femaleYaw":"21","maleYaw":"15","handicappedYaw":null,"waterCoolerYaw":null},"lat":1.2922416,"lon":103.7759594}]}},"pageContext":{"isCreatedByStatefulCreatePages":true}}